{
"type": "FeatureCollection",
"name": "High_Pop_Hospitals_2264",
"crs": { "type": "name", "properties": { "name": "urn:ogc:def:crs:EPSG::2264" } },
"features": [
{ "type": "Feature", "properties": { "FID": 1901, "ID": "0006127611", "NAME": "DUKE HEALTH RALEIGH HOSPITAL", "ADDRESS": "3400 WAKE FOREST ROAD", "CITY": "RALEIGH", "STATE": "NC", "ZIP": "27611", "ZIP4": "NOT AVAILABLE", "TELEPHONE": "(919) 954-3000", "TYPE": "GENERAL ACUTE CARE", "STATUS": "OPEN", "POPULATION": 186, "COUNTY": "WAKE", "COUNTYFIPS": "37183", "COUNTRY": "USA", "LATITUDE": 35.828532571000039, "LONGITUDE": -78.618125955999972, "NAICS_CODE": "622110", "NAICS_DESC": "GENERAL MEDICAL AND SURGICAL HOSPITALS", "SOURCE": "https://www2.ncdhhs.gov/dhsr/reports.htm", "SOURCEDATE": "2019-08-10", "VAL_METHOD": "IMAGERY/OTHER", "VAL_DATE": "2014-02-10", "WEBSITE": "http://www.dukehealthraleigh.org", "STATE_ID": "NOT AVAILABLE", "ALT_NAME": "NOT AVAILABLE", "ST_FIPS": "37", "OWNER": "NON-PROFIT", "TTL_STAFF": -999, "BEDS": 186.0, "TRAUMA": "NOT AVAILABLE", "HELIPAD": "N", "GEOID": "37183", "NAME_2": "Wake", "LSAD": "06", "Total": 976019, "White": 660230, "Blc_A_A": 202452, "Amr_Ind": 2997, "Asian": 59211, "Haw_Pcf": 463, "other": 27325, "tw_r_mr": 23341, "Pac/Tot": 47, "code": 1 }, "geometry": { "type": "MultiPoint", "coordinates": [ [ 2113197.052751102950424, 756700.641408425173722 ] ] } },
{ "type": "Feature", "properties": { "FID": 4331, "ID": "0012227403", "NAME": "WESLEY LONG COMMUNITY HOSPITAL", "ADDRESS": "501 N ELAM AVENUE", "CITY": "GREENSBORO", "STATE": "NC", "ZIP": "27403", "ZIP4": "NOT AVAILABLE", "TELEPHONE": "(336) 854-6100", "TYPE": "GENERAL ACUTE CARE", "STATUS": "OPEN", "POPULATION": 175, "COUNTY": "GUILFORD", "COUNTYFIPS": "37081", "COUNTRY": "USA", "LATITUDE": 36.083426061000075, "LONGITUDE": -79.825418580999951, "NAICS_CODE": "622110", "NAICS_DESC": "GENERAL MEDICAL AND SURGICAL HOSPITALS", "SOURCE": "https://www2.ncdhhs.gov/dhsr/reports.htm", "SOURCEDATE": "2019-08-10", "VAL_METHOD": "IMAGERY/OTHER", "VAL_DATE": "2014-02-10", "WEBSITE": "http://www.conehealth.com/locations/wesley-long-hospital", "STATE_ID": "NOT AVAILABLE", "ALT_NAME": "NOT AVAILABLE", "ST_FIPS": "37", "OWNER": "NON-PROFIT", "TTL_STAFF": -999, "BEDS": 175.0, "TRAUMA": "NOT AVAILABLE", "HELIPAD": "N", "GEOID": "37081", "NAME_2": "Guilford", "LSAD": "06", "Total": 506763, "White": 287617, "Blc_A_A": 169138, "Amr_Ind": 2328, "Asian": 22445, "Haw_Pcf": 281, "other": 13986, "tw_r_mr": 10968, "Pac/Tot": 55, "code": 0 }, "geometry": { "type": "MultiPoint", "coordinates": [ [ 1756096.308552678441629, 850282.403000021236949 ] ] } },
{ "type": "Feature", "properties": { "FID": 1904, "ID": "0011427511", "NAME": "WAKEMED CARY HOSPITAL", "ADDRESS": "1900 KILDAIRE FARM RD.", "CITY": "CARY", "STATE": "NC", "ZIP": "27511", "ZIP4": "NOT AVAILABLE", "TELEPHONE": "(919) 350-2550", "TYPE": "GENERAL ACUTE CARE", "STATUS": "OPEN", "POPULATION": 150, "COUNTY": "WAKE", "COUNTYFIPS": "37183", "COUNTRY": "USA", "LATITUDE": 35.740224051000041, "LONGITUDE": -78.781456306999985, "NAICS_CODE": "622110", "NAICS_DESC": "GENERAL MEDICAL AND SURGICAL HOSPITALS", "SOURCE": "https://www2.ncdhhs.gov/dhsr/reports.htm", "SOURCEDATE": "2019-08-10", "VAL_METHOD": "IMAGERY/OTHER", "VAL_DATE": "2014-02-10", "WEBSITE": "http://www.wakemed.org/subhome.cfm?id=54", "STATE_ID": "NOT AVAILABLE", "ALT_NAME": "NOT AVAILABLE", "ST_FIPS": "37", "OWNER": "NON-PROFIT", "TTL_STAFF": -999, "BEDS": 150.0, "TRAUMA": "LEVEL III", "HELIPAD": "Y", "GEOID": "37183", "NAME_2": "Wake", "LSAD": "06", "Total": 976019, "White": 660230, "Blc_A_A": 202452, "Amr_Ind": 2997, "Asian": 59211, "Haw_Pcf": 463, "other": 27325, "tw_r_mr": 23341, "Pac/Tot": 47, "code": 1 }, "geometry": { "type": "MultiPoint", "coordinates": [ [ 2064852.510191526031122, 724410.395197101170197 ] ] } },
{ "type": "Feature", "properties": { "FID": 1894, "ID": "0002128233", "NAME": "NOVANT HEALTH PRESPYTERIAN MEDICAL CENTER", "ADDRESS": "200 HAWTHORNE LANE", "CITY": "CHARLOTTE", "STATE": "NC", "ZIP": "28233", "ZIP4": "NOT AVAILABLE", "TELEPHONE": "(704) 384-4000", "TYPE": "GENERAL ACUTE CARE", "STATUS": "OPEN", "POPULATION": 661, "COUNTY": "MECKLENBURG", "COUNTYFIPS": "37119", "COUNTRY": "USA", "LATITUDE": 35.211838192000073, "LONGITUDE": -80.824164440999937, "NAICS_CODE": "622110", "NAICS_DESC": "GENERAL MEDICAL AND SURGICAL HOSPITALS", "SOURCE": "https://www2.ncdhhs.gov/dhsr/reports.htm", "SOURCEDATE": "2019-08-10", "VAL_METHOD": "IMAGERY/OTHER", "VAL_DATE": "2014-02-10", "WEBSITE": "https://www.novanthealth.org/presbyterian-medical-center.aspx", "STATE_ID": "NOT AVAILABLE", "ALT_NAME": "PRESBYTERIAN MEDICAL CENTER", "ST_FIPS": "37", "OWNER": "NON-PROFIT", "TTL_STAFF": -999, "BEDS": 661.0, "TRAUMA": "LEVEL III", "HELIPAD": "Y", "GEOID": "37119", "NAME_2": "Mecklenburg", "LSAD": "06", "Total": 990288, "White": 561253, "Blc_A_A": 306396, "Amr_Ind": 3196, "Asian": 51167, "Haw_Pcf": 751, "other": 40393, "tw_r_mr": 27132, "Pac/Tot": 76, "code": 0 }, "geometry": { "type": "MultiPoint", "coordinates": [ [ 1455171.435621310491115, 537032.800721161416732 ] ] } },
{ "type": "Feature", "properties": { "FID": 1031, "ID": "0015127401", "NAME": "SELECT SPECIALTY HOSPITAL - GREENSBORO", "ADDRESS": "1200 NORTH ELM STREET", "CITY": "GREENSBORO", "STATE": "NC", "ZIP": "27401", "ZIP4": "NOT AVAILABLE", "TELEPHONE": "(336) 832-5700", "TYPE": "GENERAL ACUTE CARE", "STATUS": "OPEN", "POPULATION": 30, "COUNTY": "GUILFORD", "COUNTYFIPS": "37081", "COUNTRY": "USA", "LATITUDE": 36.091017988000033, "LONGITUDE": -79.786048112999936, "NAICS_CODE": "622110", "NAICS_DESC": "GENERAL MEDICAL AND SURGICAL HOSPITALS", "SOURCE": "https://www2.ncdhhs.gov/dhsr/reports.htm", "SOURCEDATE": "2019-08-10", "VAL_METHOD": "IMAGERY/OTHER", "VAL_DATE": "2016-02-22", "WEBSITE": "http://greensboro.selectspecialtyhospitals.com/", "STATE_ID": "NOT AVAILABLE", "ALT_NAME": "NOT AVAILABLE", "ST_FIPS": "37", "OWNER": "PROPRIETARY", "TTL_STAFF": -999, "BEDS": 30.0, "TRAUMA": "NOT AVAILABLE", "HELIPAD": "N", "GEOID": "37081", "NAME_2": "Guilford", "LSAD": "06", "Total": 506763, "White": 287617, "Blc_A_A": 169138, "Amr_Ind": 2328, "Asian": 22445, "Haw_Pcf": 281, "other": 13986, "tw_r_mr": 10968, "Pac/Tot": 55, "code": 0 }, "geometry": { "type": "MultiPoint", "coordinates": [ [ 1767751.554145101457834, 852951.586986685986631 ] ] } },
{ "type": "Feature", "properties": { "FID": 1898, "ID": "0004528256", "NAME": "ATRIUM HEALTH UNIVERSITY", "ADDRESS": "8800 NORTH TRYON STREET", "CITY": "CHARLOTTE", "STATE": "NC", "ZIP": "28256", "ZIP4": "NOT AVAILABLE", "TELEPHONE": "(704) 863-6000", "TYPE": "GENERAL ACUTE CARE", "STATUS": "OPEN", "POPULATION": 100, "COUNTY": "MECKLENBURG", "COUNTYFIPS": "37119", "COUNTRY": "USA", "LATITUDE": 35.306757427000036, "LONGITUDE": -80.747047941999938, "NAICS_CODE": "622110", "NAICS_DESC": "GENERAL MEDICAL AND SURGICAL HOSPITALS", "SOURCE": "https://www2.ncdhhs.gov/dhsr/reports.htm", "SOURCEDATE": "2019-08-10", "VAL_METHOD": "IMAGERY/OTHER", "VAL_DATE": "2014-02-10", "WEBSITE": "https://www.carolinashealthcare.org/locations/carolinas-healthcare-system-university", "STATE_ID": "NOT AVAILABLE", "ALT_NAME": "CAROLINAS MEDICAL CENTER UNIVERSITY", "ST_FIPS": "37", "OWNER": "GOVERNMENT - DISTRICT/AUTHORITY", "TTL_STAFF": -999, "BEDS": 100.0, "TRAUMA": "NOT AVAILABLE", "HELIPAD": "Y", "GEOID": "37119", "NAME_2": "Mecklenburg", "LSAD": "06", "Total": 990288, "White": 561253, "Blc_A_A": 306396, "Amr_Ind": 3196, "Asian": 51167, "Haw_Pcf": 751, "other": 40393, "tw_r_mr": 27132, "Pac/Tot": 76, "code": 0 }, "geometry": { "type": "MultiPoint", "coordinates": [ [ 1478809.48164794803597, 571158.582898842869326 ] ] } },
{ "type": "Feature", "properties": { "FID": 4323, "ID": "0006827103", "NAME": "NOVANT HEALTH FORSYTH MEDICAL CENTER", "ADDRESS": "3333 SILAS CREEK PKWY", "CITY": "WINSTON-SALEM", "STATE": "NC", "ZIP": "27103", "ZIP4": "NOT AVAILABLE", "TELEPHONE": "(336) 718-5000", "TYPE": "GENERAL ACUTE CARE", "STATUS": "OPEN", "POPULATION": 919, "COUNTY": "FORSYTH", "COUNTYFIPS": "37067", "COUNTRY": "USA", "LATITUDE": 36.07555041300003, "LONGITUDE": -80.297287159999939, "NAICS_CODE": "622110", "NAICS_DESC": "GENERAL MEDICAL AND SURGICAL HOSPITALS", "SOURCE": "https://www2.ncdhhs.gov/dhsr/reports.htm", "SOURCEDATE": "2019-08-10", "VAL_METHOD": "IMAGERY/OTHER", "VAL_DATE": "2014-02-10", "WEBSITE": "https://www.novanthealth.org/forsyth-medical-center.aspx", "STATE_ID": "NOT AVAILABLE", "ALT_NAME": "NOT AVAILABLE", "ST_FIPS": "37", "OWNER": "NON-PROFIT", "TTL_STAFF": -999, "BEDS": 919.0, "TRAUMA": "NOT AVAILABLE", "HELIPAD": "Y", "GEOID": "37067", "NAME_2": "Forsyth", "LSAD": "06", "Total": 361684, "White": 242474, "Blc_A_A": 93993, "Amr_Ind": 855, "Asian": 7439, "Haw_Pcf": 403, "other": 10555, "tw_r_mr": 5965, "Pac/Tot": 111, "code": 0 }, "geometry": { "type": "MultiPoint", "coordinates": [ [ 1616632.846793913980946, 848906.456448735203594 ] ] } },
{ "type": "Feature", "properties": { "FID": 4327, "ID": "0004228207", "NAME": "CAROLINAS MEDICAL CENTER-MERCY", "ADDRESS": "2001 VAIL AVE", "CITY": "CHARLOTTE", "STATE": "NC", "ZIP": "28207", "ZIP4": "NOT AVAILABLE", "TELEPHONE": "(704) 304-5000", "TYPE": "GENERAL ACUTE CARE", "STATUS": "OPEN", "POPULATION": 305, "COUNTY": "MECKLENBURG", "COUNTYFIPS": "37119", "COUNTRY": "USA", "LATITUDE": 35.210155172000043, "LONGITUDE": -80.821029091999947, "NAICS_CODE": "622110", "NAICS_DESC": "GENERAL MEDICAL AND SURGICAL HOSPITALS", "SOURCE": "https://www2.ncdhhs.gov/dhsr/reports.htm", "SOURCEDATE": "2019-08-10", "VAL_METHOD": "IMAGERY/OTHER", "VAL_DATE": "2013-09-26", "WEBSITE": "http://www.carolinashealthcare.org/cmc-mercy", "STATE_ID": "NOT AVAILABLE", "ALT_NAME": "NOT AVAILABLE", "ST_FIPS": "37", "OWNER": "GOVERNMENT - DISTRICT/AUTHORITY", "TTL_STAFF": -999, "BEDS": 305.0, "TRAUMA": "NOT AVAILABLE", "HELIPAD": "Y", "GEOID": "37119", "NAME_2": "Mecklenburg", "LSAD": "06", "Total": 990288, "White": 561253, "Blc_A_A": 306396, "Amr_Ind": 3196, "Asian": 51167, "Haw_Pcf": 751, "other": 40393, "tw_r_mr": 27132, "Pac/Tot": 76, "code": 0 }, "geometry": { "type": "MultiPoint", "coordinates": [ [ 1456096.534849663032219, 536403.183853727881797 ] ] } },
{ "type": "Feature", "properties": { "FID": 4328, "ID": "0012528210", "NAME": "CAROLINAS HEALTHCARE SYSTEM PINEVILLE", "ADDRESS": "10628 PARK RD", "CITY": "CHARLOTTE", "STATE": "NC", "ZIP": "28210", "ZIP4": "NOT AVAILABLE", "TELEPHONE": "(704) 543-2025", "TYPE": "GENERAL ACUTE CARE", "STATUS": "OPEN", "POPULATION": 206, "COUNTY": "MECKLENBURG", "COUNTYFIPS": "37119", "COUNTRY": "USA", "LATITUDE": 35.092012183000065, "LONGITUDE": -80.871618186999967, "NAICS_CODE": "622110", "NAICS_DESC": "GENERAL MEDICAL AND SURGICAL HOSPITALS", "SOURCE": "https://www2.ncdhhs.gov/dhsr/reports.htm", "SOURCEDATE": "2019-08-10", "VAL_METHOD": "IMAGERY/OTHER", "VAL_DATE": "2014-02-10", "WEBSITE": "https://www.carolinashealthcare.org/locations/carolinas-healthcare-system-pineville", "STATE_ID": "NOT AVAILABLE", "ALT_NAME": "CAROLINAS MEDICAL CENTER-PINEVILLE", "ST_FIPS": "37", "OWNER": "GOVERNMENT - DISTRICT/AUTHORITY", "TTL_STAFF": -999, "BEDS": 206.0, "TRAUMA": "NOT AVAILABLE", "HELIPAD": "Y", "GEOID": "37119", "NAME_2": "Mecklenburg", "LSAD": "06", "Total": 990288, "White": 561253, "Blc_A_A": 306396, "Amr_Ind": 3196, "Asian": 51167, "Haw_Pcf": 751, "other": 40393, "tw_r_mr": 27132, "Pac/Tot": 76, "code": 0 }, "geometry": { "type": "MultiPoint", "coordinates": [ [ 1440177.827105796895921, 493694.774535123317037 ] ] } },
{ "type": "Feature", "properties": { "FID": 3485, "ID": "0014927103", "NAME": "SELECT SPECIALTY HOSPITAL - WINSTON SALEM", "ADDRESS": "3333 SILAS CREEK PARKWAY, 6TH FLOOR", "CITY": "WINSTON-SALEM", "STATE": "NC", "ZIP": "27103", "ZIP4": "NOT AVAILABLE", "TELEPHONE": "(336) 760-4668", "TYPE": "GENERAL ACUTE CARE", "STATUS": "OPEN", "POPULATION": 42, "COUNTY": "FORSYTH", "COUNTYFIPS": "37067", "COUNTRY": "USA", "LATITUDE": 36.074722361000056, "LONGITUDE": -80.297522726999929, "NAICS_CODE": "622110", "NAICS_DESC": "GENERAL MEDICAL AND SURGICAL HOSPITALS", "SOURCE": "https://www2.ncdhhs.gov/dhsr/reports.htm", "SOURCEDATE": "2019-08-10", "VAL_METHOD": "IMAGERY/OTHER", "VAL_DATE": "2016-02-22", "WEBSITE": "http://winstonsalem.selectspecialtyhospitals.com/", "STATE_ID": "NOT AVAILABLE", "ALT_NAME": "NOT AVAILABLE", "ST_FIPS": "37", "OWNER": "PROPRIETARY", "TTL_STAFF": -999, "BEDS": 42.0, "TRAUMA": "NOT AVAILABLE", "HELIPAD": "Y", "GEOID": "37067", "NAME_2": "Forsyth", "LSAD": "06", "Total": 361684, "White": 242474, "Blc_A_A": 93993, "Amr_Ind": 855, "Asian": 7439, "Haw_Pcf": 403, "other": 10555, "tw_r_mr": 5965, "Pac/Tot": 111, "code": 0 }, "geometry": { "type": "MultiPoint", "coordinates": [ [ 1616559.297473363112658, 848605.952212077216245 ] ] } },
{ "type": "Feature", "properties": { "FID": 7394, "ID": "0004728203", "NAME": "CAROLINAS REHABILITATION", "ADDRESS": "1100 BLYTHE BLVD", "CITY": "CHARLOTTE", "STATE": "NC", "ZIP": "28203", "ZIP4": "NOT AVAILABLE", "TELEPHONE": "(704) 355-4300", "TYPE": "REHABILITATION", "STATUS": "OPEN", "POPULATION": 70, "COUNTY": "MECKLENBURG", "COUNTYFIPS": "37119", "COUNTRY": "USA", "LATITUDE": 35.201884954000036, "LONGITUDE": -80.838717821999978, "NAICS_CODE": "622310", "NAICS_DESC": "REHABILITATION HOSPITALS (EXCEPT ALCOHOLISM, DRUG ADDICTION)", "SOURCE": "https://www2.ncdhhs.gov/dhsr/reports.htm", "SOURCEDATE": "2019-08-10", "VAL_METHOD": "IMAGERY/OTHER", "VAL_DATE": "2014-02-10", "WEBSITE": "http://www.carolinashealthcare.org/carolinas-rehab", "STATE_ID": "NOT AVAILABLE", "ALT_NAME": "NOT AVAILABLE", "ST_FIPS": "37", "OWNER": "NON-PROFIT", "TTL_STAFF": -999, "BEDS": 70.0, "TRAUMA": "NOT AVAILABLE", "HELIPAD": "Y", "GEOID": "37119", "NAME_2": "Mecklenburg", "LSAD": "06", "Total": 990288, "White": 561253, "Blc_A_A": 306396, "Amr_Ind": 3196, "Asian": 51167, "Haw_Pcf": 751, "other": 40393, "tw_r_mr": 27132, "Pac/Tot": 76, "code": 0 }, "geometry": { "type": "MultiPoint", "coordinates": [ [ 1450758.156060034176335, 533491.202673747087829 ] ] } },
{ "type": "Feature", "properties": { "FID": 1026, "ID": "0003928302", "NAME": "CAPE FEAR VALLEY MEDICAL CENTER", "ADDRESS": "1638 OWEN DRIVE", "CITY": "FAYETTEVILLE", "STATE": "NC", "ZIP": "28302", "ZIP4": "NOT AVAILABLE", "TELEPHONE": "(910) 615-6700", "TYPE": "GENERAL ACUTE CARE", "STATUS": "OPEN", "POPULATION": 600, "COUNTY": "CUMBERLAND", "COUNTYFIPS": "37051", "COUNTRY": "USA", "LATITUDE": 35.031838725000057, "LONGITUDE": -78.933053684999948, "NAICS_CODE": "622110", "NAICS_DESC": "GENERAL MEDICAL AND SURGICAL HOSPITALS", "SOURCE": "https://www2.ncdhhs.gov/dhsr/reports.htm", "SOURCEDATE": "2019-08-10", "VAL_METHOD": "IMAGERY/OTHER", "VAL_DATE": "2014-02-10", "WEBSITE": "http://www.capefearvalley.com", "STATE_ID": "NOT AVAILABLE", "ALT_NAME": "NOT AVAILABLE", "ST_FIPS": "37", "OWNER": "NON-PROFIT", "TTL_STAFF": -999, "BEDS": 600.0, "TRAUMA": "LEVEL III", "HELIPAD": "Y", "GEOID": "37051", "NAME_2": "Cumberland", "LSAD": "06", "Total": 324603, "White": 168501, "Blc_A_A": 117564, "Amr_Ind": 4743, "Asian": 7809, "Haw_Pcf": 837, "other": 7540, "tw_r_mr": 17609, "Pac/Tot": 258, "code": 0 }, "geometry": { "type": "MultiPoint", "coordinates": [ [ 2020040.138792699202895, 466523.843866770330351 ] ] } },
{ "type": "Feature", "properties": { "FID": 3588, "ID": "0015027704", "NAME": "SELECT SPECIALTY HOSPITAL - DURHAM", "ADDRESS": "3643 NORTH ROXBORO STREET, 6TH FLOOR", "CITY": "DURHAM", "STATE": "NC", "ZIP": "27704", "ZIP4": "NOT AVAILABLE", "TELEPHONE": "(919) 470-9159", "TYPE": "GENERAL ACUTE CARE", "STATUS": "OPEN", "POPULATION": 30, "COUNTY": "DURHAM", "COUNTYFIPS": "37063", "COUNTRY": "USA", "LATITUDE": 36.037497914000021, "LONGITUDE": -78.900606701999948, "NAICS_CODE": "622110", "NAICS_DESC": "GENERAL MEDICAL AND SURGICAL HOSPITALS", "SOURCE": "https://www2.ncdhhs.gov/dhsr/reports.htm", "SOURCEDATE": "2019-08-10", "VAL_METHOD": "IMAGERY/OTHER", "VAL_DATE": "2016-02-22", "WEBSITE": "http://durham.selectspecialtyhospitals.com/", "STATE_ID": "NOT AVAILABLE", "ALT_NAME": "NOT AVAILABLE", "ST_FIPS": "37", "OWNER": "PROPRIETARY", "TTL_STAFF": -999, "BEDS": 30.0, "TRAUMA": "NOT AVAILABLE", "HELIPAD": "N", "GEOID": "37063", "NAME_2": "Durham", "LSAD": "06", "Total": 288817, "White": 148213, "Blc_A_A": 108110, "Amr_Ind": 1236, "Asian": 13238, "Haw_Pcf": 116, "other": 9570, "tw_r_mr": 8334, "Pac/Tot": 40, "code": 1 }, "geometry": { "type": "MultiPoint", "coordinates": [ [ 2029385.903357923729345, 832563.48402279720176 ] ] } },
{ "type": "Feature", "properties": { "FID": 1017, "ID": "0007827261", "NAME": "HIGH POINT REGIONAL HEALTH SYSTEM", "ADDRESS": "601 NORTH ELM STREET", "CITY": "HIGH POINT", "STATE": "NC", "ZIP": "27261", "ZIP4": "NOT AVAILABLE", "TELEPHONE": "(336) 878-6000", "TYPE": "GENERAL ACUTE CARE", "STATUS": "OPEN", "POPULATION": 384, "COUNTY": "GUILFORD", "COUNTYFIPS": "37081", "COUNTRY": "USA", "LATITUDE": 35.962823799000034, "LONGITUDE": -80.01339431699995, "NAICS_CODE": "622110", "NAICS_DESC": "GENERAL MEDICAL AND SURGICAL HOSPITALS", "SOURCE": "https://www2.ncdhhs.gov/dhsr/reports.htm", "SOURCEDATE": "2019-08-10", "VAL_METHOD": "IMAGERY/OTHER", "VAL_DATE": "2014-02-10", "WEBSITE": "http://www.highpointregional.com", "STATE_ID": "NOT AVAILABLE", "ALT_NAME": "NOT AVAILABLE", "ST_FIPS": "37", "OWNER": "NON-PROFIT", "TTL_STAFF": -999, "BEDS": 384.0, "TRAUMA": "NOT AVAILABLE", "HELIPAD": "Y", "GEOID": "37081", "NAME_2": "Guilford", "LSAD": "06", "Total": 506763, "White": 287617, "Blc_A_A": 169138, "Amr_Ind": 2328, "Asian": 22445, "Haw_Pcf": 281, "other": 13986, "tw_r_mr": 10968, "Pac/Tot": 55, "code": 0 }, "geometry": { "type": "MultiPoint", "coordinates": [ [ 1700104.703774234512821, 806896.911589645198546 ] ] } },
{ "type": "Feature", "properties": { "FID": 4015, "ID": "0001327704", "NAME": "NORTH CAROLINA SPECIALTY HOSPITAL", "ADDRESS": "3916 BEN FRANKLIN BOULEVARD", "CITY": "DURHAM", "STATE": "NC", "ZIP": "27704", "ZIP4": "NOT AVAILABLE", "TELEPHONE": "(919) 956-9300", "TYPE": "GENERAL ACUTE CARE", "STATUS": "OPEN", "POPULATION": 18, "COUNTY": "DURHAM", "COUNTYFIPS": "37063", "COUNTRY": "USA", "LATITUDE": 36.043036072000064, "LONGITUDE": -78.89699466899998, "NAICS_CODE": "622110", "NAICS_DESC": "GENERAL MEDICAL AND SURGICAL HOSPITALS", "SOURCE": "https://www2.ncdhhs.gov/dhsr/reports.htm", "SOURCEDATE": "2019-08-10", "VAL_METHOD": "IMAGERY/OTHER", "VAL_DATE": "2013-09-25", "WEBSITE": "http://www.ncspecialty.com", "STATE_ID": "NOT AVAILABLE", "ALT_NAME": "NOT AVAILABLE", "ST_FIPS": "37", "OWNER": "PROPRIETARY", "TTL_STAFF": -999, "BEDS": 18.0, "TRAUMA": "NOT AVAILABLE", "HELIPAD": "N", "GEOID": "37063", "NAME_2": "Durham", "LSAD": "06", "Total": 288817, "White": 148213, "Blc_A_A": 108110, "Amr_Ind": 1236, "Asian": 13238, "Haw_Pcf": 116, "other": 9570, "tw_r_mr": 8334, "Pac/Tot": 40, "code": 1 }, "geometry": { "type": "MultiPoint", "coordinates": [ [ 2030451.751698462758213, 834580.62851032090839 ] ] } },
{ "type": "Feature", "properties": { "FID": 3377, "ID": "0178127610", "NAME": "UNC HOSPITALS AT WAKEBROOK", "ADDRESS": "111 SUNNYBROOK ROAD", "CITY": "RALEIGH", "STATE": "NC", "ZIP": "27610", "ZIP4": "NOT AVAILABLE", "TELEPHONE": "NOT AVAILABLE", "TYPE": "PSYCHIATRIC", "STATUS": "OPEN", "POPULATION": -999, "COUNTY": "WAKE", "COUNTYFIPS": "37183", "COUNTRY": "USA", "LATITUDE": 35.782897479000042, "LONGITUDE": -78.581798653999954, "NAICS_CODE": "622210", "NAICS_DESC": "PSYCHIATRIC AND SUBSTANCE ABUSE HOSPITALS", "SOURCE": "https://www2.ncdhhs.gov/dhsr/reports.htm", "SOURCEDATE": "2019-08-10", "VAL_METHOD": "IMAGERY/OTHER", "VAL_DATE": "2019-05-09", "WEBSITE": "http://www.wakegov.com/humanservices/locations/wakebrook/pages/default.aspx", "STATE_ID": "MHH0975", "ALT_NAME": "NOT AVAILABLE", "ST_FIPS": "37", "OWNER": "GOVERNMENT - STATE", "TTL_STAFF": -999, "BEDS": -999.0, "TRAUMA": "NOT AVAILABLE", "HELIPAD": "N", "GEOID": "37183", "NAME_2": "Wake", "LSAD": "06", "Total": 976019, "White": 660230, "Blc_A_A": 202452, "Amr_Ind": 2997, "Asian": 59211, "Haw_Pcf": 463, "other": 27325, "tw_r_mr": 23341, "Pac/Tot": 47, "code": 1 }, "geometry": { "type": "MultiPoint", "coordinates": [ [ 2124035.387976082507521, 740133.164242349914275 ] ] } },
{ "type": "Feature", "properties": { "FID": 3379, "ID": "0178727705", "NAME": "VERITAS COLLABORATIVE NORTH CAROLINA LLC", "ADDRESS": "615 DOUGLAS STREET", "CITY": "DURHAM", "STATE": "NC", "ZIP": "27705", "ZIP4": "NOT AVAILABLE", "TELEPHONE": "(919) 597-0296", "TYPE": "GENERAL ACUTE CARE", "STATUS": "OPEN", "POPULATION": -999, "COUNTY": "DURHAM", "COUNTYFIPS": "37063", "COUNTRY": "USA", "LATITUDE": 36.009940376000031, "LONGITUDE": -78.942325378999954, "NAICS_CODE": "622210", "NAICS_DESC": "PSYCHIATRIC AND SUBSTANCE ABUSE HOSPITALS", "SOURCE": "https://www2.ncdhhs.gov/dhsr/reports.htm", "SOURCEDATE": "2019-08-10", "VAL_METHOD": "IMAGERY/OTHER", "VAL_DATE": "2019-05-09", "WEBSITE": "https://veritascollaborative.com/eating-disorder-treatment-levels-of-care/inpatient", "STATE_ID": "NOT AVAILABLE", "ALT_NAME": "NOT AVAILABLE", "ST_FIPS": "37", "OWNER": "PROPRIETARY", "TTL_STAFF": -999, "BEDS": 50.0, "TRAUMA": "NOT AVAILABLE", "HELIPAD": "N", "GEOID": "37063", "NAME_2": "Durham", "LSAD": "06", "Total": 288817, "White": 148213, "Blc_A_A": 108110, "Amr_Ind": 1236, "Asian": 13238, "Haw_Pcf": 116, "other": 9570, "tw_r_mr": 8334, "Pac/Tot": 40, "code": 1 }, "geometry": { "type": "MultiPoint", "coordinates": [ [ 2017057.128291389439255, 822521.974536945461296 ] ] } },
{ "type": "Feature", "properties": { "FID": 3375, "ID": "0176828211", "NAME": "CAROLINAS MEDICAL CENTER FOR MENTAL HEALTH", "ADDRESS": "501 BILLINGSLEY RD", "CITY": "CHARLOTTE", "STATE": "NC", "ZIP": "28211", "ZIP4": "NOT AVAILABLE", "TELEPHONE": "(704) 444-2400", "TYPE": "PSYCHIATRIC", "STATUS": "OPEN", "POPULATION": 132, "COUNTY": "MECKLENBURG", "COUNTYFIPS": "37119", "COUNTRY": "USA", "LATITUDE": 35.192050170000073, "LONGITUDE": -80.803893975999983, "NAICS_CODE": "622210", "NAICS_DESC": "PSYCHIATRIC AND SUBSTANCE ABUSE HOSPITALS", "SOURCE": "https://www2.ncdhhs.gov/dhsr/reports.htm", "SOURCEDATE": "2019-08-10", "VAL_METHOD": "IMAGERY/OTHER", "VAL_DATE": "2019-05-09", "WEBSITE": "https://www.carolinashealthcare.org/locations/detail/carolinas-healthcare-system-behavioral-health--charlotte", "STATE_ID": "NOT AVAILABLE", "ALT_NAME": "CAROLINAS HEALTHCARE SYSTEM BEHAVIORAL HEALTH CHARLOTTE", "ST_FIPS": "37", "OWNER": "NON-PROFIT", "TTL_STAFF": -999, "BEDS": 132.0, "TRAUMA": "NOT AVAILABLE", "HELIPAD": "N", "GEOID": "37119", "NAME_2": "Mecklenburg", "LSAD": "06", "Total": 990288, "White": 561253, "Blc_A_A": 306396, "Amr_Ind": 3196, "Asian": 51167, "Haw_Pcf": 751, "other": 40393, "tw_r_mr": 27132, "Pac/Tot": 76, "code": 0 }, "geometry": { "type": "MultiPoint", "coordinates": [ [ 1461094.120813948800787, 529721.62363824096974 ] ] } },
{ "type": "Feature", "properties": { "FID": 3376, "ID": "0179128210", "NAME": "STRATEGIC BEHAVIORAL CENTER CHARLOTTE", "ADDRESS": "1715 SHARON ROAD WEST", "CITY": "CHARLOTTE", "STATE": "NC", "ZIP": "28210", "ZIP4": "NOT AVAILABLE", "TELEPHONE": "(704) 944-0650", "TYPE": "PSYCHIATRIC", "STATUS": "OPEN", "POPULATION": 60, "COUNTY": "MECKLENBURG", "COUNTYFIPS": "37119", "COUNTRY": "USA", "LATITUDE": 35.118872227000054, "LONGITUDE": -80.871922765999955, "NAICS_CODE": "622210", "NAICS_DESC": "PSYCHIATRIC AND SUBSTANCE ABUSE HOSPITALS", "SOURCE": "https://www2.ncdhhs.gov/dhsr/reports.htm", "SOURCEDATE": "2019-08-10", "VAL_METHOD": "IMAGERY/OTHER", "VAL_DATE": "2018-02-26", "WEBSITE": "http://sbccharlotte.com/", "STATE_ID": "MHH0977", "ALT_NAME": "NOT AVAILABLE", "ST_FIPS": "37", "OWNER": "PROPRIETARY", "TTL_STAFF": -999, "BEDS": 60.0, "TRAUMA": "NOT AVAILABLE", "HELIPAD": "N", "GEOID": "37119", "NAME_2": "Mecklenburg", "LSAD": "06", "Total": 990288, "White": 561253, "Blc_A_A": 306396, "Amr_Ind": 3196, "Asian": 51167, "Haw_Pcf": 751, "other": 40393, "tw_r_mr": 27132, "Pac/Tot": 76, "code": 0 }, "geometry": { "type": "MultiPoint", "coordinates": [ [ 1440271.062338340561837, 503470.174121434800327 ] ] } },
{ "type": "Feature", "properties": { "FID": 6078, "ID": "0178827104", "NAME": "OLD VINEYARD YOUTH SERVICES", "ADDRESS": "3637 OLD VINEYARD ROAD", "CITY": "WINSTON-SALEM", "STATE": "NC", "ZIP": "27104", "ZIP4": "NOT AVAILABLE", "TELEPHONE": "(336) 794-3550", "TYPE": "PSYCHIATRIC", "STATUS": "OPEN", "POPULATION": -999, "COUNTY": "FORSYTH", "COUNTYFIPS": "37067", "COUNTRY": "USA", "LATITUDE": 36.078334382000037, "LONGITUDE": -80.318573817999948, "NAICS_CODE": "622210", "NAICS_DESC": "PSYCHIATRIC AND SUBSTANCE ABUSE HOSPITALS", "SOURCE": "https://www2.ncdhhs.gov/dhsr/reports.htm", "SOURCEDATE": "2019-08-10", "VAL_METHOD": "IMAGERY/OTHER", "VAL_DATE": "2019-05-09", "WEBSITE": "http://oldvineyardbhs.com/", "STATE_ID": "NOT AVAILABLE", "ALT_NAME": "OLD VINEYARD BEHAVIORAL HEALTH SERVICES", "ST_FIPS": "37", "OWNER": "PROPRIETARY", "TTL_STAFF": -999, "BEDS": 164.0, "TRAUMA": "NOT AVAILABLE", "HELIPAD": "N", "GEOID": "37067", "NAME_2": "Forsyth", "LSAD": "06", "Total": 361684, "White": 242474, "Blc_A_A": 93993, "Amr_Ind": 855, "Asian": 7439, "Haw_Pcf": 403, "other": 10555, "tw_r_mr": 5965, "Pac/Tot": 111, "code": 0 }, "geometry": { "type": "MultiPoint", "coordinates": [ [ 1610356.169173648580909, 850002.724848633748479 ] ] } },
{ "type": "Feature", "properties": { "FID": 3483, "ID": "0014728217", "NAME": "CAROLINA CONTINUECARE AT UNIVERSITY", "ADDRESS": "8800 NORTH TRYON ST, 4TH FLOOR", "CITY": "CHARLOTTE", "STATE": "NC", "ZIP": "28217", "ZIP4": "NOT AVAILABLE", "TELEPHONE": "(704) 863-8300", "TYPE": "LONG TERM CARE", "STATUS": "OPEN", "POPULATION": 35, "COUNTY": "MECKLENBURG", "COUNTYFIPS": "37119", "COUNTRY": "USA", "LATITUDE": 35.306757427000036, "LONGITUDE": -80.747726087999979, "NAICS_CODE": "622310", "NAICS_DESC": "SPECIALTY (EXCEPT PSYCHIATRIC AND SUBSTANCE ABUSE) HOSPITALS", "SOURCE": "https://www2.ncdhhs.gov/dhsr/reports.htm", "SOURCEDATE": "2019-08-10", "VAL_METHOD": "IMAGERY/OTHER", "VAL_DATE": "2016-01-28", "WEBSITE": "http://continuecare.org/charlotte/", "STATE_ID": "NOT AVAILABLE", "ALT_NAME": "NOT AVAILABLE", "ST_FIPS": "37", "OWNER": "NON-PROFIT", "TTL_STAFF": -999, "BEDS": 35.0, "TRAUMA": "NOT AVAILABLE", "HELIPAD": "Y", "GEOID": "37119", "NAME_2": "Mecklenburg", "LSAD": "06", "Total": 990288, "White": 561253, "Blc_A_A": 306396, "Amr_Ind": 3196, "Asian": 51167, "Haw_Pcf": 751, "other": 40393, "tw_r_mr": 27132, "Pac/Tot": 76, "code": 0 }, "geometry": { "type": "MultiPoint", "coordinates": [ [ 1478607.193962429417297, 571162.144266816205345 ] ] } },
{ "type": "Feature", "properties": { "FID": 6079, "ID": "0000000037", "NAME": "WOMACK ARMY MEDICAL CENTER", "ADDRESS": "2817 REILLY RD", "CITY": "FORT BRAGG", "STATE": "NC", "ZIP": "28307", "ZIP4": "NOT AVAILABLE", "TELEPHONE": "(910) 907-6000", "TYPE": "MILITARY", "STATUS": "OPEN", "POPULATION": -999, "COUNTY": "CUMBERLAND", "COUNTYFIPS": "37051", "COUNTRY": "USA", "LATITUDE": 35.145626237000045, "LONGITUDE": -79.00217023099998, "NAICS_CODE": "622110", "NAICS_DESC": "GENERAL MEDICAL AND SURGICAL HOSPITALS", "SOURCE": "http://www.tricare.mil/mtf", "SOURCEDATE": "2020-04-01", "VAL_METHOD": "IMAGERY/OTHER", "VAL_DATE": "2015-07-28", "WEBSITE": "http://www.wamc.amedd.army.mil/", "STATE_ID": "NOT AVAILABLE", "ALT_NAME": "NOT AVAILABLE", "ST_FIPS": "37", "OWNER": "GOVERNMENT - FEDERAL", "TTL_STAFF": -999, "BEDS": 138.0, "TRAUMA": "LEVEL III", "HELIPAD": "Y", "GEOID": "37051", "NAME_2": "Cumberland", "LSAD": "06", "Total": 324603, "White": 168501, "Blc_A_A": 117564, "Amr_Ind": 4743, "Asian": 7809, "Haw_Pcf": 837, "other": 7540, "tw_r_mr": 17609, "Pac/Tot": 258, "code": 0 }, "geometry": { "type": "MultiPoint", "coordinates": [ [ 1999351.025071450974792, 507928.507134182553273 ] ] } },
{ "type": "Feature", "properties": { "FID": 1008, "ID": "0000527103", "NAME": "NOVANT HEALTH MEDICAL PARK HOSPITAL", "ADDRESS": "1950 SOUTH HAWTHORNE RD", "CITY": "WINSTON-SALEM", "STATE": "NC", "ZIP": "27103", "ZIP4": "NOT AVAILABLE", "TELEPHONE": "(336) 718-0600", "TYPE": "GENERAL ACUTE CARE", "STATUS": "OPEN", "POPULATION": 22, "COUNTY": "FORSYTH", "COUNTYFIPS": "37067", "COUNTRY": "USA", "LATITUDE": 36.075837571000079, "LONGITUDE": -80.296760774999939, "NAICS_CODE": "622110", "NAICS_DESC": "GENERAL MEDICAL AND SURGICAL HOSPITALS", "SOURCE": "https://www2.ncdhhs.gov/dhsr/reports.htm", "SOURCEDATE": "2019-08-10", "VAL_METHOD": "IMAGERY/OTHER", "VAL_DATE": "2014-02-10", "WEBSITE": "http://www.novanthealth.org", "STATE_ID": "NOT AVAILABLE", "ALT_NAME": "NOT AVAILABLE", "ST_FIPS": "37", "OWNER": "NON-PROFIT", "TTL_STAFF": -999, "BEDS": 22.0, "TRAUMA": "NOT AVAILABLE", "HELIPAD": "Y", "GEOID": "37067", "NAME_2": "Forsyth", "LSAD": "06", "Total": 361684, "White": 242474, "Blc_A_A": 93993, "Amr_Ind": 855, "Asian": 7439, "Haw_Pcf": 403, "other": 10555, "tw_r_mr": 5965, "Pac/Tot": 111, "code": 0 }, "geometry": { "type": "MultiPoint", "coordinates": [ [ 1616789.757568683708087, 849008.950310723856091 ] ] } },
{ "type": "Feature", "properties": { "FID": 3484, "ID": "0014828210", "NAME": "ATRIUM HEALTH PINEVILLE", "ADDRESS": "10628 PARK ROAD, 3RD FLOOR", "CITY": "CHARLOTTE", "STATE": "NC", "ZIP": "28210", "ZIP4": "NOT AVAILABLE", "TELEPHONE": "(704) 667-8050", "TYPE": "LONG TERM CARE", "STATUS": "OPEN", "POPULATION": 40, "COUNTY": "MECKLENBURG", "COUNTYFIPS": "37119", "COUNTRY": "USA", "LATITUDE": 35.090827211000033, "LONGITUDE": -80.871225575999972, "NAICS_CODE": "622310", "NAICS_DESC": "SPECIALTY (EXCEPT PSYCHIATRIC AND SUBSTANCE ABUSE) HOSPITALS", "SOURCE": "https://www2.ncdhhs.gov/dhsr/reports.htm", "SOURCEDATE": "2019-08-10", "VAL_METHOD": "IMAGERY/OTHER", "VAL_DATE": "2016-01-28", "WEBSITE": "http://continuecare.org/pineville/", "STATE_ID": "NOT AVAILABLE", "ALT_NAME": "NOT AVAILABLE", "ST_FIPS": "37", "OWNER": "NON-PROFIT", "TTL_STAFF": -999, "BEDS": 40.0, "TRAUMA": "NOT AVAILABLE", "HELIPAD": "Y", "GEOID": "37119", "NAME_2": "Mecklenburg", "LSAD": "06", "Total": 990288, "White": 561253, "Blc_A_A": 306396, "Amr_Ind": 3196, "Asian": 51167, "Haw_Pcf": 751, "other": 40393, "tw_r_mr": 27132, "Pac/Tot": 76, "code": 0 }, "geometry": { "type": "MultiPoint", "coordinates": [ [ 1440287.118533407570794, 493261.380386118369643 ] ] } },
{ "type": "Feature", "properties": { "FID": 3380, "ID": "0178027529", "NAME": "STRATEGIC BEHAVIORAL CENTER GARNER", "ADDRESS": "3200 WATERFIELD ROAD", "CITY": "GARNER", "STATE": "NC", "ZIP": "27529", "ZIP4": "NOT AVAILABLE", "TELEPHONE": "(919) 800-4400", "TYPE": "PSYCHIATRIC", "STATUS": "OPEN", "POPULATION": -999, "COUNTY": "WAKE", "COUNTYFIPS": "37183", "COUNTRY": "USA", "LATITUDE": 35.678034190000062, "LONGITUDE": -78.561408282999935, "NAICS_CODE": "622210", "NAICS_DESC": "PSYCHIATRIC AND SUBSTANCE ABUSE HOSPITALS", "SOURCE": "https://www2.ncdhhs.gov/dhsr/reports.htm", "SOURCEDATE": "2019-08-10", "VAL_METHOD": "IMAGERY/OTHER", "VAL_DATE": "2019-05-09", "WEBSITE": "http://sbcraleigh.com/", "STATE_ID": "MHH0973", "ALT_NAME": "NOT AVAILABLE", "ST_FIPS": "37", "OWNER": "PROPRIETARY", "TTL_STAFF": -999, "BEDS": 56.0, "TRAUMA": "NOT AVAILABLE", "HELIPAD": "N", "GEOID": "37183", "NAME_2": "Wake", "LSAD": "06", "Total": 976019, "White": 660230, "Blc_A_A": 202452, "Amr_Ind": 2997, "Asian": 59211, "Haw_Pcf": 463, "other": 27325, "tw_r_mr": 23341, "Pac/Tot": 47, "code": 1 }, "geometry": { "type": "MultiPoint", "coordinates": [ [ 2130251.711409743875265, 701990.664170947275124 ] ] } },
{ "type": "Feature", "properties": { "FID": 6077, "ID": "0000000126", "NAME": "KERNERSVILLE MEDICAL CENTER-ER", "ADDRESS": "1750 KERNERSVILLE MEDICAL PKWY", "CITY": "KERNERSVILLE", "STATE": "NC", "ZIP": "27284", "ZIP4": "NOT AVAILABLE", "TELEPHONE": "(336) 564-4000", "TYPE": "GENERAL ACUTE CARE", "STATUS": "OPEN", "POPULATION": -999, "COUNTY": "FORSYTH", "COUNTYFIPS": "37067", "COUNTRY": "USA", "LATITUDE": 36.090960321000075, "LONGITUDE": -80.044150381999941, "NAICS_CODE": "622110", "NAICS_DESC": "GENERAL MEDICAL AND SURGICAL HOSPITALS", "SOURCE": "https://www2.ncdhhs.gov/dhsr/reports.htm", "SOURCEDATE": "2019-08-10", "VAL_METHOD": "IMAGERY/OTHER", "VAL_DATE": "2015-05-23", "WEBSITE": "https://www.novanthealth.org/kernersville-medical-center.aspx", "STATE_ID": "NOT AVAILABLE", "ALT_NAME": "NOT AVAILABLE", "ST_FIPS": "37", "OWNER": "NON-PROFIT", "TTL_STAFF": -999, "BEDS": 50.0, "TRAUMA": "NOT AVAILABLE", "HELIPAD": "N", "GEOID": "37067", "NAME_2": "Forsyth", "LSAD": "06", "Total": 361684, "White": 242474, "Blc_A_A": 93993, "Amr_Ind": 855, "Asian": 7439, "Haw_Pcf": 403, "other": 10555, "tw_r_mr": 5965, "Pac/Tot": 111, "code": 0 }, "geometry": { "type": "MultiPoint", "coordinates": [ [ 1691494.110458426875994, 853633.777860170695931 ] ] } },
{ "type": "Feature", "properties": { "FID": 3357, "ID": "0168327610", "NAME": "HOLLY HILL HOSPITAL", "ADDRESS": "3019 FALSTAFF RD", "CITY": "RALEIGH", "STATE": "NC", "ZIP": "27610", "ZIP4": "1899", "TELEPHONE": "(919) 250-7000", "TYPE": "PSYCHIATRIC", "STATUS": "OPEN", "POPULATION": -999, "COUNTY": "WAKE", "COUNTYFIPS": "37183", "COUNTRY": "USA", "LATITUDE": 35.782773747000078, "LONGITUDE": -78.58392113299999, "NAICS_CODE": "622210", "NAICS_DESC": "PSYCHIATRIC AND SUBSTANCE ABUSE HOSPITALS", "SOURCE": "https://www2.ncdhhs.gov/dhsr/reports.htm", "SOURCEDATE": "2019-08-10", "VAL_METHOD": "IMAGERY/OTHER", "VAL_DATE": "2019-05-09", "WEBSITE": "https://hollyhillhospital.com/", "STATE_ID": "MHH0113", "ALT_NAME": "NOT AVAILABLE", "ST_FIPS": "37", "OWNER": "PROPRIETARY", "TTL_STAFF": -999, "BEDS": 285.0, "TRAUMA": "NOT AVAILABLE", "HELIPAD": "N", "GEOID": "37183", "NAME_2": "Wake", "LSAD": "06", "Total": 976019, "White": 660230, "Blc_A_A": 202452, "Amr_Ind": 2997, "Asian": 59211, "Haw_Pcf": 463, "other": 27325, "tw_r_mr": 23341, "Pac/Tot": 47, "code": 1 }, "geometry": { "type": "MultiPoint", "coordinates": [ [ 2123406.066190403420478, 740085.480632264632732 ] ] } },
{ "type": "Feature", "properties": { "FID": 6081, "ID": "0008127705", "NAME": "VA MEDICAL CENTER - DURHAM", "ADDRESS": "508 FULTON ST", "CITY": "DURHAM", "STATE": "NC", "ZIP": "27705", "ZIP4": "NOT AVAILABLE", "TELEPHONE": "(919) 286-0411", "TYPE": "MILITARY", "STATUS": "OPEN", "POPULATION": -999, "COUNTY": "DURHAM", "COUNTYFIPS": "37063", "COUNTRY": "USA", "LATITUDE": 36.009512073000053, "LONGITUDE": -78.938832329999968, "NAICS_CODE": "622110", "NAICS_DESC": "GENERAL MEDICAL AND SURGICAL HOSPITALS", "SOURCE": "https://www.va.gov/directory/guide/allstate.asp", "SOURCEDATE": "2019-09-26", "VAL_METHOD": "IMAGERY/OTHER", "VAL_DATE": "2015-05-22", "WEBSITE": "http://www.durham.va.gov/", "STATE_ID": "NOT AVAILABLE", "ALT_NAME": "NOT AVAILABLE", "ST_FIPS": "37", "OWNER": "GOVERNMENT - FEDERAL", "TTL_STAFF": -999, "BEDS": 151.0, "TRAUMA": "NOT AVAILABLE", "HELIPAD": "N", "GEOID": "37063", "NAME_2": "Durham", "LSAD": "06", "Total": 288817, "White": 148213, "Blc_A_A": 108110, "Amr_Ind": 1236, "Asian": 13238, "Haw_Pcf": 116, "other": 9570, "tw_r_mr": 8334, "Pac/Tot": 40, "code": 1 }, "geometry": { "type": "MultiPoint", "coordinates": [ [ 2018090.335774962091818, 822366.686750509426929 ] ] } },
{ "type": "Feature", "properties": { "FID": 6082, "ID": "0008528301", "NAME": "VA MEDICAL CENTER - FAYETTEVILLE", "ADDRESS": "2300 RAMSEY ST", "CITY": "FAYETTEVILLE", "STATE": "NC", "ZIP": "28301", "ZIP4": "NOT AVAILABLE", "TELEPHONE": "(910) 488-2120", "TYPE": "MILITARY", "STATUS": "OPEN", "POPULATION": -999, "COUNTY": "CUMBERLAND", "COUNTYFIPS": "37051", "COUNTRY": "USA", "LATITUDE": 35.087822621000043, "LONGITUDE": -78.876955835999979, "NAICS_CODE": "622110", "NAICS_DESC": "GENERAL MEDICAL AND SURGICAL HOSPITALS", "SOURCE": "https://www.va.gov/directory/guide/allstate.asp", "SOURCEDATE": "2019-09-26", "VAL_METHOD": "IMAGERY/OTHER", "VAL_DATE": "2015-05-22", "WEBSITE": "http://www.fayettevillenc.va.gov/", "STATE_ID": "NOT AVAILABLE", "ALT_NAME": "NOT AVAILABLE", "ST_FIPS": "37", "OWNER": "GOVERNMENT - FEDERAL", "TTL_STAFF": -999, "BEDS": 127.0, "TRAUMA": "NOT AVAILABLE", "HELIPAD": "N", "GEOID": "37051", "NAME_2": "Cumberland", "LSAD": "06", "Total": 324603, "White": 168501, "Blc_A_A": 117564, "Amr_Ind": 4743, "Asian": 7809, "Haw_Pcf": 837, "other": 7540, "tw_r_mr": 17609, "Pac/Tot": 258, "code": 0 }, "geometry": { "type": "MultiPoint", "coordinates": [ [ 2036807.534828139469028, 486914.327568881679326 ] ] } },
{ "type": "Feature", "properties": { "FID": 3373, "ID": "0176627403", "NAME": "BEHAVIORAL HEALTH HOSPITAL", "ADDRESS": "700 WALTER REED DRIVE", "CITY": "GREENSBORO", "STATE": "NC", "ZIP": "27403", "ZIP4": "NOT AVAILABLE", "TELEPHONE": "(336) 832-9700", "TYPE": "PSYCHIATRIC", "STATUS": "OPEN", "POPULATION": 80, "COUNTY": "GUILFORD", "COUNTYFIPS": "37081", "COUNTRY": "USA", "LATITUDE": 36.082795504000046, "LONGITUDE": -79.822456151999972, "NAICS_CODE": "622210", "NAICS_DESC": "PSYCHIATRIC AND SUBSTANCE ABUSE HOSPITALS", "SOURCE": "https://www2.ncdhhs.gov/dhsr/reports.htm", "SOURCEDATE": "2019-08-10", "VAL_METHOD": "IMAGERY/OTHER", "VAL_DATE": "2019-05-09", "WEBSITE": "https://www.conehealth.com/locations/behavioral-health-hospital/", "STATE_ID": "H0159", "ALT_NAME": "CONE HEALTH BEHAVIORAL HEALTH HOSPITAL", "ST_FIPS": "37", "OWNER": "NON-PROFIT", "TTL_STAFF": -999, "BEDS": 80.0, "TRAUMA": "NOT AVAILABLE", "HELIPAD": "N", "GEOID": "37081", "NAME_2": "Guilford", "LSAD": "06", "Total": 506763, "White": 287617, "Blc_A_A": 169138, "Amr_Ind": 2328, "Asian": 22445, "Haw_Pcf": 281, "other": 13986, "tw_r_mr": 10968, "Pac/Tot": 55, "code": 0 }, "geometry": { "type": "MultiPoint", "coordinates": [ [ 1756969.757466574432328, 850045.596934636938386 ] ] } },
{ "type": "Feature", "properties": { "FID": 996, "ID": "0002228078", "NAME": "NOVANT HEALTH HUNTERSVILLE MEDICAL CENTER", "ADDRESS": "10030 GILEAD ROAD", "CITY": "HUNTERSVILLE", "STATE": "NC", "ZIP": "28078", "ZIP4": "NOT AVAILABLE", "TELEPHONE": "(704) 316-4010", "TYPE": "GENERAL ACUTE CARE", "STATUS": "OPEN", "POPULATION": 91, "COUNTY": "MECKLENBURG", "COUNTYFIPS": "37119", "COUNTRY": "USA", "LATITUDE": 35.40644418200003, "LONGITUDE": -80.860260894999954, "NAICS_CODE": "622110", "NAICS_DESC": "GENERAL MEDICAL AND SURGICAL HOSPITALS", "SOURCE": "https://www2.ncdhhs.gov/dhsr/reports.htm", "SOURCEDATE": "2019-08-10", "VAL_METHOD": "IMAGERY/OTHER", "VAL_DATE": "2014-02-10", "WEBSITE": "https://www.novanthealth.org/huntersville-medical-center.aspx", "STATE_ID": "NOT AVAILABLE", "ALT_NAME": "HUNTERSVILLE MEDICAL CENTER", "ST_FIPS": "37", "OWNER": "NON-PROFIT", "TTL_STAFF": -999, "BEDS": 91.0, "TRAUMA": "NOT AVAILABLE", "HELIPAD": "Y", "GEOID": "37119", "NAME_2": "Mecklenburg", "LSAD": "06", "Total": 990288, "White": 561253, "Blc_A_A": 306396, "Amr_Ind": 3196, "Asian": 51167, "Haw_Pcf": 751, "other": 40393, "tw_r_mr": 27132, "Pac/Tot": 76, "code": 0 }, "geometry": { "type": "MultiPoint", "coordinates": [ [ 1445718.935970409307629, 608047.083538259845227 ] ] } },
{ "type": "Feature", "properties": { "FID": 997, "ID": "0002328106", "NAME": "NOVANT HEALTH MATTHEWS MEDICAL CENTER", "ADDRESS": "1500 MATTHEWS TOWNSHIP PARKWAY", "CITY": "MATTHEWS", "STATE": "NC", "ZIP": "28106", "ZIP4": "NOT AVAILABLE", "TELEPHONE": "(704) 384-6370", "TYPE": "GENERAL ACUTE CARE", "STATUS": "OPEN", "POPULATION": 146, "COUNTY": "MECKLENBURG", "COUNTYFIPS": "37119", "COUNTRY": "USA", "LATITUDE": 35.119984808000027, "LONGITUDE": -80.714078412999982, "NAICS_CODE": "622110", "NAICS_DESC": "GENERAL MEDICAL AND SURGICAL HOSPITALS", "SOURCE": "https://www2.ncdhhs.gov/dhsr/reports.htm", "SOURCEDATE": "2019-08-10", "VAL_METHOD": "IMAGERY/OTHER", "VAL_DATE": "2014-02-10", "WEBSITE": "https://www.novanthealth.org/matthews-medical-center.aspx", "STATE_ID": "NOT AVAILABLE", "ALT_NAME": "MATTHEWS MEDICAL CENTER", "ST_FIPS": "37", "OWNER": "NON-PROFIT", "TTL_STAFF": -999, "BEDS": 146.0, "TRAUMA": "NOT AVAILABLE", "HELIPAD": "Y", "GEOID": "37119", "NAME_2": "Mecklenburg", "LSAD": "06", "Total": 990288, "White": 561253, "Blc_A_A": 306396, "Amr_Ind": 3196, "Asian": 51167, "Haw_Pcf": 751, "other": 40393, "tw_r_mr": 27132, "Pac/Tot": 76, "code": 0 }, "geometry": { "type": "MultiPoint", "coordinates": [ [ 1487470.512375665362924, 503022.512545572593808 ] ] } },
{ "type": "Feature", "properties": { "FID": 3372, "ID": "0179027408", "NAME": "WOMEN'S HOSPITAL", "ADDRESS": "801 GREEN VALLEY ROAD", "CITY": "GREENSBORO", "STATE": "NC", "ZIP": "27408", "ZIP4": "NOT AVAILABLE", "TELEPHONE": "(336) 832-6500", "TYPE": "WOMEN", "STATUS": "OPEN", "POPULATION": 134, "COUNTY": "GUILFORD", "COUNTYFIPS": "37081", "COUNTRY": "USA", "LATITUDE": 36.092908213000037, "LONGITUDE": -79.817863791999969, "NAICS_CODE": "622310", "NAICS_DESC": "MATERNITY HOSPITALS", "SOURCE": "https://www2.ncdhhs.gov/dhsr/reports.htm", "SOURCEDATE": "2019-08-10", "VAL_METHOD": "IMAGERY/OTHER", "VAL_DATE": "2019-05-09", "WEBSITE": "https://www.conehealth.com/locations/womens-hospital/", "STATE_ID": "H0159", "ALT_NAME": "CONE HEALTH WOMEN'S HOSPITAL", "ST_FIPS": "37", "OWNER": "NON-PROFIT", "TTL_STAFF": -999, "BEDS": 134.0, "TRAUMA": "NOT AVAILABLE", "HELIPAD": "N", "GEOID": "37081", "NAME_2": "Guilford", "LSAD": "06", "Total": 506763, "White": 287617, "Blc_A_A": 169138, "Amr_Ind": 2328, "Asian": 22445, "Haw_Pcf": 281, "other": 13986, "tw_r_mr": 10968, "Pac/Tot": 55, "code": 0 }, "geometry": { "type": "MultiPoint", "coordinates": [ [ 1758357.066881011473015, 853715.649964598123915 ] ] } },
{ "type": "Feature", "properties": { "FID": 3020, "ID": "0004628232", "NAME": "CAROLINAS MEDICAL CENTER", "ADDRESS": "1000 BLYTHE BOULEVARD", "CITY": "CHARLOTTE", "STATE": "NC", "ZIP": "28232", "ZIP4": "NOT AVAILABLE", "TELEPHONE": "(704) 355-2000", "TYPE": "GENERAL ACUTE CARE", "STATUS": "OPEN", "POPULATION": 1023, "COUNTY": "MECKLENBURG", "COUNTYFIPS": "37119", "COUNTRY": "USA", "LATITUDE": 35.203899886000045, "LONGITUDE": -80.838901795999945, "NAICS_CODE": "622110", "NAICS_DESC": "GENERAL MEDICAL AND SURGICAL HOSPITALS", "SOURCE": "https://www2.ncdhhs.gov/dhsr/reports.htm", "SOURCEDATE": "2019-08-10", "VAL_METHOD": "IMAGERY/OTHER", "VAL_DATE": "2014-02-10", "WEBSITE": "http://www.carolinasmedicalcenter.org", "STATE_ID": "NOT AVAILABLE", "ALT_NAME": "NOT AVAILABLE", "ST_FIPS": "37", "OWNER": "GOVERNMENT - DISTRICT/AUTHORITY", "TTL_STAFF": -999, "BEDS": 1023.0, "TRAUMA": "LEVEL I", "HELIPAD": "Y", "GEOID": "37119", "NAME_2": "Mecklenburg", "LSAD": "06", "Total": 990288, "White": 561253, "Blc_A_A": 306396, "Amr_Ind": 3196, "Asian": 51167, "Haw_Pcf": 751, "other": 40393, "tw_r_mr": 27132, "Pac/Tot": 76, "code": 0 }, "geometry": { "type": "MultiPoint", "coordinates": [ [ 1450716.791380882263184, 534225.416529636597261 ] ] } },
{ "type": "Feature", "properties": { "FID": 998, "ID": "0009228207", "NAME": "NOVANT HOSPITAL CHARLOTTE ORTHOPEDIC HOSPITAL", "ADDRESS": "1901 RANDOLPH RD", "CITY": "CHARLOTTE", "STATE": "NC", "ZIP": "28207", "ZIP4": "NOT AVAILABLE", "TELEPHONE": "(704) 316-2000", "TYPE": "GENERAL ACUTE CARE", "STATUS": "OPEN", "POPULATION": 80, "COUNTY": "MECKLENBURG", "COUNTYFIPS": "37119", "COUNTRY": "USA", "LATITUDE": 35.210797601000024, "LONGITUDE": -80.823521515999971, "NAICS_CODE": "622110", "NAICS_DESC": "GENERAL MEDICAL AND SURGICAL HOSPITALS", "SOURCE": "https://www2.ncdhhs.gov/dhsr/reports.htm", "SOURCEDATE": "2019-08-10", "VAL_METHOD": "IMAGERY/OTHER", "VAL_DATE": "2014-02-10", "WEBSITE": "https://www.novanthealth.org/charlotte-orthopedic-hospital.aspx", "STATE_ID": "NOT AVAILABLE", "ALT_NAME": "CHARLOTTE ORTHOPEDIC HOSPITAL", "ST_FIPS": "37", "OWNER": "NON-PROFIT", "TTL_STAFF": -999, "BEDS": 80.0, "TRAUMA": "NOT AVAILABLE", "HELIPAD": "Y", "GEOID": "37119", "NAME_2": "Mecklenburg", "LSAD": "06", "Total": 990288, "White": 561253, "Blc_A_A": 306396, "Amr_Ind": 3196, "Asian": 51167, "Haw_Pcf": 751, "other": 40393, "tw_r_mr": 27132, "Pac/Tot": 76, "code": 0 }, "geometry": { "type": "MultiPoint", "coordinates": [ [ 1455356.481166599085554, 536650.619512315839529 ] ] } },
{ "type": "Feature", "properties": { "FID": 3021, "ID": "0008627406", "NAME": "KINDRED HOSPITAL - GREENSBORO", "ADDRESS": "2401 SOUTHSIDE BLVD", "CITY": "GREENSBORO", "STATE": "NC", "ZIP": "27406", "ZIP4": "NOT AVAILABLE", "TELEPHONE": "(336) 271-2800", "TYPE": "GENERAL ACUTE CARE", "STATUS": "OPEN", "POPULATION": 124, "COUNTY": "GUILFORD", "COUNTYFIPS": "37081", "COUNTRY": "USA", "LATITUDE": 36.049263826000072, "LONGITUDE": -79.770365023999929, "NAICS_CODE": "622110", "NAICS_DESC": "GENERAL MEDICAL AND SURGICAL HOSPITALS", "SOURCE": "https://www2.ncdhhs.gov/dhsr/reports.htm", "SOURCEDATE": "2019-08-10", "VAL_METHOD": "IMAGERY/OTHER", "VAL_DATE": "2013-09-27", "WEBSITE": "http://www.khgreensboro.com", "STATE_ID": "NOT AVAILABLE", "ALT_NAME": "NOT AVAILABLE", "ST_FIPS": "37", "OWNER": "PROPRIETARY", "TTL_STAFF": -999, "BEDS": 124.0, "TRAUMA": "NOT AVAILABLE", "HELIPAD": "N", "GEOID": "37081", "NAME_2": "Guilford", "LSAD": "06", "Total": 506763, "White": 287617, "Blc_A_A": 169138, "Amr_Ind": 2328, "Asian": 22445, "Haw_Pcf": 281, "other": 13986, "tw_r_mr": 10968, "Pac/Tot": 55, "code": 0 }, "geometry": { "type": "MultiPoint", "coordinates": [ [ 1772267.300858630565926, 837715.776091021019965 ] ] } },
{ "type": "Feature", "properties": { "FID": 4883, "ID": "0000827401", "NAME": "CONE HEALTH", "ADDRESS": "1200 NORTH ELM ST", "CITY": "GREENSBORO", "STATE": "NC", "ZIP": "27401", "ZIP4": "NOT AVAILABLE", "TELEPHONE": "(336) 832-7000", "TYPE": "GENERAL ACUTE CARE", "STATUS": "OPEN", "POPULATION": 906, "COUNTY": "GUILFORD", "COUNTYFIPS": "37081", "COUNTRY": "USA", "LATITUDE": 36.090884738000057, "LONGITUDE": -79.786457379999959, "NAICS_CODE": "622110", "NAICS_DESC": "GENERAL MEDICAL AND SURGICAL HOSPITALS", "SOURCE": "https://www2.ncdhhs.gov/dhsr/reports.htm", "SOURCEDATE": "2019-08-10", "VAL_METHOD": "IMAGERY/OTHER", "VAL_DATE": "2014-02-10", "WEBSITE": "http://www.conehealth.com/locations/moses-cone-hospital/", "STATE_ID": "NOT AVAILABLE", "ALT_NAME": "NOT AVAILABLE", "ST_FIPS": "37", "OWNER": "NON-PROFIT", "TTL_STAFF": -999, "BEDS": 906.0, "TRAUMA": "LEVEL II", "HELIPAD": "N", "GEOID": "37081", "NAME_2": "Guilford", "LSAD": "06", "Total": 506763, "White": 287617, "Blc_A_A": 169138, "Amr_Ind": 2328, "Asian": 22445, "Haw_Pcf": 281, "other": 13986, "tw_r_mr": 10968, "Pac/Tot": 55, "code": 0 }, "geometry": { "type": "MultiPoint", "coordinates": [ [ 1767630.249037495348603, 852904.038738820818253 ] ] } },
{ "type": "Feature", "properties": { "FID": 4884, "ID": "0009527607", "NAME": "REX HOSPITAL", "ADDRESS": "4420 LAKE BOONE TRAIL", "CITY": "RALEIGH", "STATE": "NC", "ZIP": "27607", "ZIP4": "NOT AVAILABLE", "TELEPHONE": "(919) 784-3100", "TYPE": "GENERAL ACUTE CARE", "STATUS": "OPEN", "POPULATION": 514, "COUNTY": "WAKE", "COUNTYFIPS": "37183", "COUNTRY": "USA", "LATITUDE": 35.817488637000054, "LONGITUDE": -78.703171913999938, "NAICS_CODE": "622110", "NAICS_DESC": "GENERAL MEDICAL AND SURGICAL HOSPITALS", "SOURCE": "https://www2.ncdhhs.gov/dhsr/reports.htm", "SOURCEDATE": "2019-08-10", "VAL_METHOD": "IMAGERY/OTHER", "VAL_DATE": "2014-02-10", "WEBSITE": "http://www.rexhealth.com", "STATE_ID": "NOT AVAILABLE", "ALT_NAME": "NOT AVAILABLE", "ST_FIPS": "37", "OWNER": "NON-PROFIT", "TTL_STAFF": -999, "BEDS": 514.0, "TRAUMA": "NOT AVAILABLE", "HELIPAD": "Y", "GEOID": "37183", "NAME_2": "Wake", "LSAD": "06", "Total": 976019, "White": 660230, "Blc_A_A": 202452, "Amr_Ind": 2997, "Asian": 59211, "Haw_Pcf": 463, "other": 27325, "tw_r_mr": 23341, "Pac/Tot": 47, "code": 1 }, "geometry": { "type": "MultiPoint", "coordinates": [ [ 2087999.263530568685383, 752594.453622301341966 ] ] } },
{ "type": "Feature", "properties": { "FID": 2694, "ID": "0184428215", "NAME": "NOVANT HEALTH MINT HILL MEDICAL CENTER", "ADDRESS": "8201 HEALTHCARE LOOP", "CITY": "CHARLOTTE", "STATE": "NC", "ZIP": "28215", "ZIP4": "NOT AVAILABLE", "TELEPHONE": "(704) 384-4089", "TYPE": "GENERAL ACUTE CARE", "STATUS": "OPEN", "POPULATION": -999, "COUNTY": "MECKLENBURG", "COUNTYFIPS": "37119", "COUNTRY": "USA", "LATITUDE": 35.223160125000049, "LONGITUDE": -80.647818589999986, "NAICS_CODE": "622110", "NAICS_DESC": "GENERAL MEDICAL AND SURGICAL HOSPITALS", "SOURCE": "https://www2.ncdhhs.gov/dhsr/data/hllist.pdf", "SOURCEDATE": "2019-09-27", "VAL_METHOD": "IMAGERY/OTHER", "VAL_DATE": "2020-05-05", "WEBSITE": "https://www.novanthealth.org/mint-hill-medical-center.aspx?utm_source=maps.google.com&utm_medium=organic&utm_campaign=gmb&utm_content=mc-10", "STATE_ID": "60857", "ALT_NAME": "NOT AVAILABLE", "ST_FIPS": "37", "OWNER": "NOT AVAILABLE", "TTL_STAFF": -999, "BEDS": 36.0, "TRAUMA": "NOT AVAILABLE", "HELIPAD": "Y", "GEOID": "37119", "NAME_2": "Mecklenburg", "LSAD": "06", "Total": 990288, "White": 561253, "Blc_A_A": 306396, "Amr_Ind": 3196, "Asian": 51167, "Haw_Pcf": 751, "other": 40393, "tw_r_mr": 27132, "Pac/Tot": 76, "code": 0 }, "geometry": { "type": "MultiPoint", "coordinates": [ [ 1507904.359495643526316, 540231.613486446789466 ] ] } },
{ "type": "Feature", "properties": { "FID": 4879, "ID": "0001227157", "NAME": "NORTH CAROLINA BAPTIST HOSPITAL", "ADDRESS": "MEDICAL CENTER BLVD", "CITY": "WINSTON-SALEM", "STATE": "NC", "ZIP": "27157", "ZIP4": "NOT AVAILABLE", "TELEPHONE": "(336) 716-4750", "TYPE": "GENERAL ACUTE CARE", "STATUS": "OPEN", "POPULATION": 872, "COUNTY": "FORSYTH", "COUNTYFIPS": "37067", "COUNTRY": "USA", "LATITUDE": 36.089649608000059, "LONGITUDE": -80.268174832999989, "NAICS_CODE": "622110", "NAICS_DESC": "GENERAL MEDICAL AND SURGICAL HOSPITALS", "SOURCE": "https://www2.ncdhhs.gov/dhsr/reports.htm", "SOURCEDATE": "2019-08-10", "VAL_METHOD": "IMAGERY/OTHER", "VAL_DATE": "2014-02-10", "WEBSITE": "http://www.wakehealth.edu/", "STATE_ID": "NOT AVAILABLE", "ALT_NAME": "NOT AVAILABLE", "ST_FIPS": "37", "OWNER": "NON-PROFIT", "TTL_STAFF": -999, "BEDS": 872.0, "TRAUMA": "LEVEL I", "HELIPAD": "Y", "GEOID": "37067", "NAME_2": "Forsyth", "LSAD": "06", "Total": 361684, "White": 242474, "Blc_A_A": 93993, "Amr_Ind": 855, "Asian": 7439, "Haw_Pcf": 403, "other": 10555, "tw_r_mr": 5965, "Pac/Tot": 111, "code": 0 }, "geometry": { "type": "MultiPoint", "coordinates": [ [ 1625301.043816809775308, 853927.466046740650199 ] ] } },
{ "type": "Feature", "properties": { "FID": 2555, "ID": "0184927103", "NAME": "NOVANT HEALTH REHABILITATION HOSPITAL", "ADDRESS": "2475 HILLCREST CENTER CIRCLE", "CITY": "WINSTON-SALEM", "STATE": "NC", "ZIP": "27103", "ZIP4": "NOT AVAILABLE", "TELEPHONE": "(336) 754-3500", "TYPE": "REHABILITATION", "STATUS": "OPEN", "POPULATION": -999, "COUNTY": "FORSYTH", "COUNTYFIPS": "37067", "COUNTRY": "USA", "LATITUDE": 36.051139634000037, "LONGITUDE": -80.326969936999959, "NAICS_CODE": "622310", "NAICS_DESC": "REHABILITATION HOSPITALS (EXCEPT ALCOHOLISM, DRUG ADDICTION)", "SOURCE": "https://www2.ncdhhs.gov/dhsr/data/hllist.pdf", "SOURCEDATE": "2019-09-27", "VAL_METHOD": "IMAGERY/OTHER", "VAL_DATE": "2020-05-05", "WEBSITE": "https://www.encompasshealth.com/locations/novanthealthrehab", "STATE_ID": "160338", "ALT_NAME": "NOT AVAILABLE", "ST_FIPS": "37", "OWNER": "NOT AVAILABLE", "TTL_STAFF": -999, "BEDS": 68.0, "TRAUMA": "NOT AVAILABLE", "HELIPAD": "N", "GEOID": "37067", "NAME_2": "Forsyth", "LSAD": "06", "Total": 361684, "White": 242474, "Blc_A_A": 93993, "Amr_Ind": 855, "Asian": 7439, "Haw_Pcf": 403, "other": 10555, "tw_r_mr": 5965, "Pac/Tot": 111, "code": 0 }, "geometry": { "type": "MultiPoint", "coordinates": [ [ 1607742.908091448713094, 840136.883242754032835 ] ] } },
{ "type": "Feature", "properties": { "FID": 4885, "ID": "0011327620", "NAME": "WAKEMED", "ADDRESS": "3000 NEW BERN AVENUE", "CITY": "RALEIGH", "STATE": "NC", "ZIP": "27620", "ZIP4": "NOT AVAILABLE", "TELEPHONE": "(919) 350-8000", "TYPE": "GENERAL ACUTE CARE", "STATUS": "OPEN", "POPULATION": 870, "COUNTY": "WAKE", "COUNTYFIPS": "37183", "COUNTRY": "USA", "LATITUDE": 35.784511348000024, "LONGITUDE": -78.587901970999951, "NAICS_CODE": "622110", "NAICS_DESC": "GENERAL MEDICAL AND SURGICAL HOSPITALS", "SOURCE": "https://www2.ncdhhs.gov/dhsr/reports.htm", "SOURCEDATE": "2019-08-10", "VAL_METHOD": "IMAGERY/OTHER", "VAL_DATE": "2014-02-10", "WEBSITE": "http://www.wakemed.org/subhome.cfm?id=52", "STATE_ID": "NOT AVAILABLE", "ALT_NAME": "NOT AVAILABLE", "ST_FIPS": "37", "OWNER": "NON-PROFIT", "TTL_STAFF": -999, "BEDS": 870.0, "TRAUMA": "LEVEL I", "HELIPAD": "Y", "GEOID": "37183", "NAME_2": "Wake", "LSAD": "06", "Total": 976019, "White": 660230, "Blc_A_A": 202452, "Amr_Ind": 2997, "Asian": 59211, "Haw_Pcf": 463, "other": 27325, "tw_r_mr": 23341, "Pac/Tot": 47, "code": 1 }, "geometry": { "type": "MultiPoint", "coordinates": [ [ 2122222.752381828613579, 740713.025055565987714 ] ] } },
{ "type": "Feature", "properties": { "FID": 3018, "ID": "0006427704", "NAME": "DUKE REGIONAL HOSPITAL", "ADDRESS": "3643 NORTH ROXBORO RD", "CITY": "DURHAM", "STATE": "NC", "ZIP": "27704", "ZIP4": "NOT AVAILABLE", "TELEPHONE": "(919) 470-4000", "TYPE": "GENERAL ACUTE CARE", "STATUS": "OPEN", "POPULATION": 369, "COUNTY": "DURHAM", "COUNTYFIPS": "37063", "COUNTRY": "USA", "LATITUDE": 36.036793594000073, "LONGITUDE": -78.900254541999971, "NAICS_CODE": "622110", "NAICS_DESC": "GENERAL MEDICAL AND SURGICAL HOSPITALS", "SOURCE": "https://www2.ncdhhs.gov/dhsr/reports.htm", "SOURCEDATE": "2019-08-10", "VAL_METHOD": "IMAGERY/OTHER", "VAL_DATE": "2014-02-10", "WEBSITE": "http://www.dukeregional.org/", "STATE_ID": "NOT AVAILABLE", "ALT_NAME": "NOT AVAILABLE", "ST_FIPS": "37", "OWNER": "NON-PROFIT", "TTL_STAFF": -999, "BEDS": 369.0, "TRAUMA": "NOT AVAILABLE", "HELIPAD": "N", "GEOID": "37063", "NAME_2": "Durham", "LSAD": "06", "Total": 288817, "White": 148213, "Blc_A_A": 108110, "Amr_Ind": 1236, "Asian": 13238, "Haw_Pcf": 116, "other": 9570, "tw_r_mr": 8334, "Pac/Tot": 40, "code": 1 }, "geometry": { "type": "MultiPoint", "coordinates": [ [ 2029490.280400827759877, 832307.19679163582623 ] ] } },
{ "type": "Feature", "properties": { "FID": 4886, "ID": "0012127614", "NAME": "WAKEMED NORTH", "ADDRESS": "10000 FALLS OF NEUSE ROAD", "CITY": "RALEIGH", "STATE": "NC", "ZIP": "27614", "ZIP4": "NOT AVAILABLE", "TELEPHONE": "(919) 350-1300", "TYPE": "GENERAL ACUTE CARE", "STATUS": "OPEN", "POPULATION": 61, "COUNTY": "WAKE", "COUNTYFIPS": "37183", "COUNTRY": "USA", "LATITUDE": 35.909082321000028, "LONGITUDE": -78.597837392999963, "NAICS_CODE": "622110", "NAICS_DESC": "GENERAL MEDICAL AND SURGICAL HOSPITALS", "SOURCE": "https://www2.ncdhhs.gov/dhsr/reports.htm", "SOURCEDATE": "2019-08-10", "VAL_METHOD": "IMAGERY/OTHER", "VAL_DATE": "2014-02-10", "WEBSITE": "http://www.wakemed.org/landing.cfm?id=1848", "STATE_ID": "NOT AVAILABLE", "ALT_NAME": "NOT AVAILABLE", "ST_FIPS": "37", "OWNER": "NON-PROFIT", "TTL_STAFF": -999, "BEDS": 61.0, "TRAUMA": "NOT AVAILABLE", "HELIPAD": "N", "GEOID": "37183", "NAME_2": "Wake", "LSAD": "06", "Total": 976019, "White": 660230, "Blc_A_A": 202452, "Amr_Ind": 2997, "Asian": 59211, "Haw_Pcf": 463, "other": 27325, "tw_r_mr": 23341, "Pac/Tot": 47, "code": 1 }, "geometry": { "type": "MultiPoint", "coordinates": [ [ 2119092.255954850930721, 786044.669866299722344 ] ] } },
{ "type": "Feature", "properties": { "FID": 4878, "ID": "0006227710", "NAME": "DUKE UNIVERSITY HOSPITAL", "ADDRESS": "2301 ERWIN ROAD", "CITY": "DURHAM", "STATE": "NC", "ZIP": "27710", "ZIP4": "NOT AVAILABLE", "TELEPHONE": "(919) 684-8076", "TYPE": "GENERAL ACUTE CARE", "STATUS": "OPEN", "POPULATION": 943, "COUNTY": "DURHAM", "COUNTYFIPS": "37063", "COUNTRY": "USA", "LATITUDE": 36.007049799000072, "LONGITUDE": -78.937758111999983, "NAICS_CODE": "622110", "NAICS_DESC": "GENERAL MEDICAL AND SURGICAL HOSPITALS", "SOURCE": "https://www2.ncdhhs.gov/dhsr/reports.htm", "SOURCEDATE": "2019-08-10", "VAL_METHOD": "IMAGERY/OTHER", "VAL_DATE": "2014-02-10", "WEBSITE": "http://www.dukehealth.org", "STATE_ID": "NOT AVAILABLE", "ALT_NAME": "NOT AVAILABLE", "ST_FIPS": "37", "OWNER": "NON-PROFIT", "TTL_STAFF": -999, "BEDS": 943.0, "TRAUMA": "LEVEL I", "HELIPAD": "Y", "GEOID": "37063", "NAME_2": "Durham", "LSAD": "06", "Total": 288817, "White": 148213, "Blc_A_A": 108110, "Amr_Ind": 1236, "Asian": 13238, "Haw_Pcf": 116, "other": 9570, "tw_r_mr": 8334, "Pac/Tot": 40, "code": 1 }, "geometry": { "type": "MultiPoint", "coordinates": [ [ 2018408.61127637908794, 821470.558957516564988 ] ] } },
{ "type": "Feature", "properties": { "FID": 1909, "ID": "0008028301", "NAME": "HIGHSMITH-RAINEY MEMORIAL HOSPITAL", "ADDRESS": "150 ROBESON STREET", "CITY": "FAYETTEVILLE", "STATE": "NC", "ZIP": "28301", "ZIP4": "NOT AVAILABLE", "TELEPHONE": "(910) 609-1434", "TYPE": "GENERAL ACUTE CARE", "STATUS": "OPEN", "POPULATION": 66, "COUNTY": "CUMBERLAND", "COUNTYFIPS": "37051", "COUNTRY": "USA", "LATITUDE": 35.054303165000078, "LONGITUDE": -78.88815429899995, "NAICS_CODE": "622110", "NAICS_DESC": "GENERAL MEDICAL AND SURGICAL HOSPITALS", "SOURCE": "https://www2.ncdhhs.gov/dhsr/reports.htm", "SOURCEDATE": "2019-08-10", "VAL_METHOD": "IMAGERY/OTHER", "VAL_DATE": "2014-02-10", "WEBSITE": "http://www.capefearvalley.com/hospitals/hrsh.html", "STATE_ID": "NOT AVAILABLE", "ALT_NAME": "NOT AVAILABLE", "ST_FIPS": "37", "OWNER": "NON-PROFIT", "TTL_STAFF": -999, "BEDS": 66.0, "TRAUMA": "NOT AVAILABLE", "HELIPAD": "N", "GEOID": "37051", "NAME_2": "Cumberland", "LSAD": "06", "Total": 324603, "White": 168501, "Blc_A_A": 117564, "Amr_Ind": 4743, "Asian": 7809, "Haw_Pcf": 837, "other": 7540, "tw_r_mr": 17609, "Pac/Tot": 258, "code": 0 }, "geometry": { "type": "MultiPoint", "coordinates": [ [ 2033471.382200769847259, 474711.458212708530482 ] ] } }
]
}
